{"type": "FeatureCollection", "features": [{"geometry": {"type": "Point", "coordinates": [-123.367588, 48.432214]}, "type": "Feature", "properties": {"category": "Brewery", "description": "", "hours": "Thursday: 10:00 AM \u2013 6:00 PM", "phone": "(250) 380-1912", "beer": [" Analogue 78 Kolsch", " Blue Buck Ale", " Bottle Rocket ISA", " Citricity Grapefruit Zest IPA", " Electric Unicorn White IPA", " Hop Circle IPA", " Pilsner Pilsner", " Short Wave Pale Ale"], "name": "Phillips Brewery"}}, {"geometry": {"type": "Point", "coordinates": [-123.367661, 48.434945]}, "type": "Feature", "properties": {"category": "Brewery", "description": "", "hours": "Thursday: 11:00 AM \u2013 6:00 PM", "phone": "(250) 361-0007", "beer": ["Current taps not listed"], "name": "Vancouver Island Brewery"}}, {"geometry": {"type": "Point", "coordinates": [-123.374197, 48.437084]}, "type": "Feature", "properties": {"category": "Brewery", "description": "", "hours": "Thursday: 11:00 AM \u2013 6:00 PM", "phone": "(250) 381-2739", "beer": [" Arcus Pilsner", " White Bark Witbier", " New Growth Pale Ale", " Naughty Hildegard ESB", " Fat Tug IPA", " Black Stone Porter"], "name": "Driftwood Brewery"}}, {"geometry": {"type": "Point", "coordinates": [-123.373553, 48.437223]}, "type": "Feature", "properties": {"category": "Brewery", "description": "", "hours": "Thursday: 12:00 \u2013 6:00 PM", "phone": "(250) 590-5758", "beer": ["Current taps not listed"], "name": "Hoyne Brewery"}}, {"geometry": {"type": "Point", "coordinates": [-123.396754, 48.436494]}, "type": "Feature", "properties": {"category": "Brewery", "description": "", "hours": "Thursday: 11:00 AM \u2013 6:00 PM", "phone": "(250) 383-6500", "beer": [" Shipwreck IPA", " Citrus Shore Session Ale", " Tasman Pale Ale", " Seaport Vanilla Stout", " Race Rocks Ale", " Keepers Stout", " Numbskull Motueka Edition Imperial IPA", " Nightwatch Coffee Lager"], "name": "Lighthouse Brewery"}}, {"geometry": {"type": "Point", "coordinates": [-123.38695, 48.484655]}, "type": "Feature", "properties": {"category": "Brewery", "description": "", "hours": "Thursday: 11:00 AM \u2013 8:00 PM", "phone": "(778) 401-0410", "beer": [" Holy Willie's Robust Porter", " Mistress of My Soul Saison", " Keekin' Glass Pilsner", " Silver Flood Belgian Wit"], "name": "TWA Dogs"}}, {"geometry": {"type": "Point", "coordinates": [-123.65979, 48.393168]}, "type": "Feature", "properties": {"category": "Brewery", "description": "", "hours": "Thursday: 12:00 \u2013 6:00 PM", "phone": "(778) 352-2739", "beer": [" Stiff Jab Pale Ale", " Springboard IPA", " Renfrew Red Ale", " Bonfire Blonde Ale"], "name": "Sooke Oceanside Brewery"}}, {"geometry": {"type": "Point", "coordinates": [-123.724213, 48.378513]}, "type": "Feature", "properties": {"category": "Brewery", "description": "", "hours": "Thursday: 11:00 AM \u2013 11:00 PM", "phone": "(250) 642-0106", "beer": [" Vienna Lager", " Belgian Blonde Ale", " Oatmeal Stout", " I.P.A.", " German Pilsner", " West Coast Belgian IPA", " Saison", " Foreign Extra Stout", " Czech Lager", " Marzen", " Barleywine"], "name": "Sooke Brewery"}}, {"geometry": {"type": "Point", "coordinates": [-123.407919, 48.565383]}, "type": "Feature", "properties": {"category": "Brewery", "description": "", "hours": "Thursday: 12:00 \u2013 6:00 PM", "phone": "(250) 652-9668", "beer": ["Current taps not listed"], "name": "Category 12 Brewery"}}, {"geometry": {"type": "Point", "coordinates": [-123.370859, 48.429699]}, "type": "Feature", "properties": {"category": "Brewpub", "description": "", "hours": "Thursday: 11:30 AM \u2013 12:00 AM", "phone": "(250) 361-1940", "beer": [" Helles", " Witbier", " West Coast", " Amber", " Maibock", " Rye I.S.A."], "name": "Canoe Brewpub"}}, {"geometry": {"type": "Point", "coordinates": [-123.369355, 48.428719]}, "type": "Feature", "properties": {"category": "Brewpub", "description": "", "hours": "Thursday: 11:00 AM \u2013 1:00 AM", "phone": "(250) 361-3310", "beer": ["Current taps not listed"], "name": "Swans Brewpub"}}, {"geometry": {"type": "Point", "coordinates": [-123.385019, 48.429214]}, "type": "Feature", "properties": {"category": "Brewpub", "description": "", "hours": "Thursday: 8:00 AM \u2013 11:00 PM", "phone": "(250) 386-2739", "beer": [" Black Lager", " Chocoholic Chocolate Milk Stout", " Coffee Blonde", " Dragonfly Rye Saison", " English Style India Pale Ale", " Estate Sooke Bitter", " Fan Tan Abbey", " House Dry Apple Cider", " Jolly Hopper Imperial IPA", " Josta-Melon Sour", " Juice Monkey IPA", " Lager", " Mitchell's Extra Special Bitter", " Nut Brown Ale", " Original Pale Ale", " Ortega Blonde", " Perry Cider", " Sheringham Gin Botanical Cider", " Snakebite", " 'Fig Deal' Barley Wine"], "name": "Spinnackers Brewpub"}}, {"geometry": {"type": "Point", "coordinates": [-123.375497, 48.435289]}, "type": "Feature", "properties": {"category": "Brewpub", "description": "", "hours": "Thursday: 11:30 AM \u2013 11:00 PM", "phone": "(250) 380-0706", "beer": [" Berliner-Style Weiss", " Light Side of the Moon", " Creepy Uncle Dunkel", " Tranquility IPA", " Hip As Funk", " Potts Pils", " This is Hefeweizen"], "name": "Moon Under Water Brewpub"}}, {"geometry": {"type": "Point", "coordinates": [-123.433849, 48.452372]}, "type": "Feature", "properties": {"category": "Brewpub", "description": "", "hours": "Thursday: 11:00 AM \u2013 11:00 PM", "phone": "(250) 479-3346", "beer": ["Current taps not listed"], "name": "4 Mile Brewpub"}}, {"geometry": {"type": "Point", "coordinates": [-123.500189, 48.464703]}, "type": "Feature", "properties": {"category": "Brewpub", "description": "", "hours": "Thursday: 11:00 AM \u2013 11:00 PM", "phone": "(250) 474-1989", "beer": [" LANGFORD LOGGER ABV", " SPEEDWAY RPA", " TESSIERS WITBIER", " WEST SHORE IPA", " AXE STOUT", " KING KOLSCH", " FRUITY MOTHER PUCKER"], "name": "Axe & Barrel"}}]}